{
"type": "FeatureCollection",
"name": "equipements_sb_croix_st_lambert",
"crs": { "type": "name", "properties": { "name": "urn:ogc:def:crs:OGC:1.3:CRS84" } },
"features": [
{ "type": "Feature", "properties": { "ffid": 7, "name": "Base nature de la Ville Oger", "numero": "11", "ville": "SAINT-BRIEUC", "description": null, "type": "Equipements culturels et de loisirs ", "quartier": "Croix Saint Lambert - Ville Oger", "auxiliary_storage_labeling_positionx": null, "auxiliary_storage_labeling_positiony": null }, "geometry": { "type": "Point", "coordinates": [ -2.74232, 48.49561 ] } },
{ "type": "Feature", "properties": { "ffid": 8, "name": "Bibliothèque Albert Camus", "numero": "09", "ville": "SAINT-BRIEUC", "description": null, "type": "Equipements culturels et de loisirs ", "quartier": "Croix Saint Lambert - Ville Oger", "auxiliary_storage_labeling_positionx": null, "auxiliary_storage_labeling_positiony": null }, "geometry": { "type": "Point", "coordinates": [ -2.74624, 48.4982 ] } },
{ "type": "Feature", "properties": { "ffid": 12, "name": "Centre Commercial", "numero": "21", "ville": "SAINT-BRIEUC", "description": null, "type": "Autres", "quartier": "Croix Saint Lambert - Ville Oger", "auxiliary_storage_labeling_positionx": null, "auxiliary_storage_labeling_positiony": null }, "geometry": { "type": "Point", "coordinates": [ -2.74682, 48.49819 ] } },
{ "type": "Feature", "properties": { "ffid": 15, "name": "Centre Hospitalier Benoit Menni- Saint Jean de Dieu", "numero": "14", "ville": "SAINT-BRIEUC", "description": null, "type": "Equipements de santé", "quartier": "Croix Saint Lambert - Ville Oger", "auxiliary_storage_labeling_positionx": null, "auxiliary_storage_labeling_positiony": null }, "geometry": { "type": "Point", "coordinates": [ -2.75246, 48.49994 ] } },
{ "type": "Feature", "properties": { "ffid": 18, "name": "Centre social Croix Saint-Lambert", "numero": "02", "ville": "SAINT-BRIEUC", "description": null, "type": "Equipements sociaux", "quartier": "Croix Saint Lambert - Ville Oger", "auxiliary_storage_labeling_positionx": null, "auxiliary_storage_labeling_positiony": null }, "geometry": { "type": "Point", "coordinates": [ -2.74667, 48.4985 ] } },
{ "type": "Feature", "properties": { "ffid": 20, "name": "CH Yves Le Foll", "numero": "15", "ville": "SAINT-BRIEUC", "description": null, "type": "Equipements de santé", "quartier": "Croix Saint Lambert - Ville Oger", "auxiliary_storage_labeling_positionx": null, "auxiliary_storage_labeling_positiony": null }, "geometry": { "type": "Point", "coordinates": [ -2.75093, 48.49261 ] } },
{ "type": "Feature", "properties": { "ffid": 24, "name": "City Stade de la Ville Oger", "numero": "12", "ville": "SAINT-BRIEUC", "description": null, "type": "Equipements sportifs", "quartier": "Croix Saint Lambert - Ville Oger", "auxiliary_storage_labeling_positionx": null, "auxiliary_storage_labeling_positiony": null }, "geometry": { "type": "Point", "coordinates": [ -2.74464, 48.49763 ] } },
{ "type": "Feature", "properties": { "ffid": 26, "name": "CLPS", "numero": "04", "ville": "SAINT-BRIEUC", "description": null, "type": "Autres", "quartier": "Croix Saint Lambert - Ville Oger", "auxiliary_storage_labeling_positionx": null, "auxiliary_storage_labeling_positiony": null }, "geometry": { "type": "Point", "coordinates": [ -2.74953, 48.49974 ] } },
{ "type": "Feature", "properties": { "ffid": 28, "name": "Collège Léonard de Vinci", "numero": "08", "ville": "SAINT-BRIEUC", "description": null, "type": "Etablissements scolaires", "quartier": "Croix Saint Lambert - Ville Oger", "auxiliary_storage_labeling_positionx": null, "auxiliary_storage_labeling_positiony": null }, "geometry": { "type": "Point", "coordinates": [ -2.75223, 48.49689 ] } },
{ "type": "Feature", "properties": { "ffid": 34, "name": "Crèche le Chat perché", "numero": "01", "ville": "SAINT-BRIEUC", "description": null, "type": "Equipements sociaux", "quartier": "Croix Saint Lambert - Ville Oger", "auxiliary_storage_labeling_positionx": null, "auxiliary_storage_labeling_positiony": null }, "geometry": { "type": "Point", "coordinates": [ -2.74569, 48.49965 ] } },
{ "type": "Feature", "properties": { "ffid": 36, "name": "Ecole élémentaire Beauvallon", "numero": "07", "ville": "SAINT-BRIEUC", "description": null, "type": "Etablissements scolaires", "quartier": "Croix Saint Lambert - Ville Oger", "auxiliary_storage_labeling_positionx": null, "auxiliary_storage_labeling_positiony": null }, "geometry": { "type": "Point", "coordinates": [ -2.75425, 48.50167 ] } },
{ "type": "Feature", "properties": { "ffid": 41, "name": "Ecole maternelle de l'Etablette", "numero": "05", "ville": "SAINT-BRIEUC", "description": null, "type": "Etablissements scolaires", "quartier": "Croix Saint Lambert - Ville Oger", "auxiliary_storage_labeling_positionx": null, "auxiliary_storage_labeling_positiony": null }, "geometry": { "type": "Point", "coordinates": [ -2.74625, 48.49947 ] } },
{ "type": "Feature", "properties": { "ffid": 42, "name": "Ecole primaire Jacques Brel", "numero": "06", "ville": "SAINT-BRIEUC", "description": null, "type": "Etablissements scolaires", "quartier": "Croix Saint Lambert - Ville Oger", "auxiliary_storage_labeling_positionx": null, "auxiliary_storage_labeling_positiony": null }, "geometry": { "type": "Point", "coordinates": [ -2.75289, 48.49546 ] } },
{ "type": "Feature", "properties": { "ffid": 48, "name": "Eglise Saint-Vincent de Paul", "numero": "23", "ville": "SAINT-BRIEUC", "description": null, "type": "Autres", "quartier": "Croix Saint Lambert - Ville Oger", "auxiliary_storage_labeling_positionx": null, "auxiliary_storage_labeling_positiony": null }, "geometry": { "type": "Point", "coordinates": [ -2.755, 48.49813 ] } },
{ "type": "Feature", "properties": { "ffid": 51, "name": "Ferme de la Ville Oger (comité de quartier)", "numero": "10", "ville": "SAINT-BRIEUC", "description": null, "type": "Equipements culturels et de loisirs ", "quartier": "Croix Saint Lambert - Ville Oger", "auxiliary_storage_labeling_positionx": null, "auxiliary_storage_labeling_positiony": null }, "geometry": { "type": "Point", "coordinates": [ -2.74377, 48.49581 ] } },
{ "type": "Feature", "properties": { "ffid": 55, "name": "Gymnase Léonard de Vinci", "numero": "19", "ville": "SAINT-BRIEUC", "description": null, "type": "Equipements sportifs", "quartier": "Croix Saint Lambert - Ville Oger", "auxiliary_storage_labeling_positionx": null, "auxiliary_storage_labeling_positiony": null }, "geometry": { "type": "Point", "coordinates": [ -2.75154, 48.49586 ] } },
{ "type": "Feature", "properties": { "ffid": 56, "name": "La Poste", "numero": "20", "ville": "SAINT-BRIEUC", "description": null, "type": "Autres", "quartier": "Croix Saint Lambert - Ville Oger", "auxiliary_storage_labeling_positionx": null, "auxiliary_storage_labeling_positiony": null }, "geometry": { "type": "Point", "coordinates": [ -2.7474, 48.49795 ] } },
{ "type": "Feature", "properties": { "ffid": 57, "name": "Local Jeunes Le Cercle Xavier Grall", "numero": "16", "ville": "SAINT-BRIEUC", "description": null, "type": "Equipements sociaux", "quartier": "Croix Saint Lambert - Ville Oger", "auxiliary_storage_labeling_positionx": null, "auxiliary_storage_labeling_positiony": null }, "geometry": { "type": "Point", "coordinates": [ -2.74563, 48.49523 ] } },
{ "type": "Feature", "properties": { "ffid": 58, "name": "Local Jeunes Spot", "numero": "17", "ville": "SAINT-BRIEUC", "description": null, "type": "Equipements sociaux", "quartier": "Croix Saint Lambert - Ville Oger", "auxiliary_storage_labeling_positionx": null, "auxiliary_storage_labeling_positiony": null }, "geometry": { "type": "Point", "coordinates": [ -2.74743, 48.49879 ] } },
{ "type": "Feature", "properties": { "ffid": 63, "name": "Maison d'accueil spécialisé Ker-Dihun", "numero": "22", "ville": "SIANT-BRIEUC", "description": null, "type": "Equipements de santé", "quartier": "Croix Saint Lambert - Ville Oger", "auxiliary_storage_labeling_positionx": null, "auxiliary_storage_labeling_positiony": null }, "geometry": { "type": "Point", "coordinates": [ -2.7575, 48.49847 ] } },
{ "type": "Feature", "properties": { "ffid": 69, "name": "Pôle emploi", "numero": "03", "ville": "SAINT-BRIEUC", "description": null, "type": "Autres", "quartier": "Croix Saint Lambert - Ville Oger", "auxiliary_storage_labeling_positionx": null, "auxiliary_storage_labeling_positiony": null }, "geometry": { "type": "Point", "coordinates": [ -2.74757, 48.4984 ] } },
{ "type": "Feature", "properties": { "ffid": 71, "name": "Siège social Le Cercle", "numero": "18", "ville": "SAINT-BRIEUC", "description": null, "type": "Equipements culturels et de loisirs ", "quartier": "Croix Saint Lambert - Ville Oger", "auxiliary_storage_labeling_positionx": null, "auxiliary_storage_labeling_positiony": null }, "geometry": { "type": "Point", "coordinates": [ -2.74648, 48.49989 ] } },
{ "type": "Feature", "properties": { "ffid": 74, "name": "Terrains de football de la Ville Oger", "numero": "13", "ville": "SAINT-BRIEUC", "description": null, "type": "Equipements sportifs", "quartier": "Croix Saint Lambert - Ville Oger", "auxiliary_storage_labeling_positionx": null, "auxiliary_storage_labeling_positiony": null }, "geometry": { "type": "Point", "coordinates": [ -2.74584, 48.49696 ] } }
]
}
